{
"type": "FeatureCollection",
"crs": { "type": "name", "properties": { "name": "urn:ogc:def:crs:EPSG::4269" } },
                                                                                
"features": [
{ "type": "Feature", "properties": { "Status": "M", "Score": 100.0, "Match_type": "A", "Match_addr": "3986 W BARRY AVE, 60618", "Side": "R", "Ref_ID": 2397, "User_fld": "0", "Addr_type": "StreetAddress", "ARC_Street": "3986 W Barry Ave.", "ARC_ZIP": "60618", "schid": "15016299025008CAP02", "name": "Aspira Chtr - Early College Hs", "F3": "*", "Address": "3986 W Barry Ave.", "CITY": "Chicago", "ZIP": 60618.0, "distid": "150162990250000", "dist": "City of Chicago SD 299", "city1": "Chicago", "county": "Cook", "type": "CHARTER NET SCH" }, "geometry": { "type": "Point", "coordinates": [ -87.726836020623935, 41.937326834852506 ] } },
{ "type": "Feature", "properties": { "Status": "M", "Score": 100.0, "Match_type": "A", "Match_addr": "3729 W LELAND AVE, 60625", "Side": "L", "Ref_ID": 49758, "User_fld": "0", "Addr_type": "StreetAddress", "ARC_Street": "3729 W Leland Ave.", "ARC_ZIP": "60625", "schid": "15016299025008CAP01", "name": "Aspira Chtr - Haugan", "F3": "*", "Address": "3729 W Leland Ave.", "CITY": "Chicago", "ZIP": 60625.0, "distid": "150162990250000", "dist": "City of Chicago SD 299", "city1": "Chicago", "county": "Cook", "type": "CHARTER NET SCH" }, "geometry": { "type": "Point", "coordinates": [ -87.721825212356507, 41.966433106139156 ] } },
{ "type": "Feature", "properties": { "Status": "M", "Score": 100.0, "Match_type": "A", "Match_addr": "1711 N CALIFORNIA AVE, 60647", "Side": "R", "Ref_ID": 20011, "User_fld": "0", "Addr_type": "StreetAddress", "ARC_Street": "1711 N California Ave", "ARC_ZIP": "60647", "schid": "15016299025008CAP03", "name": "Aspira Chtr - Ramirez Hs", "F3": "*", "Address": "1711 N California Ave", "CITY": "Chicago", "ZIP": 60647.0, "distid": "150162990250000", "dist": "City of Chicago SD 299", "city1": "Chicago", "county": "Cook", "type": "CHARTER NET SCH" }, "geometry": { "type": "Point", "coordinates": [ -87.696978114921819, 41.91250483186046 ] } },
{ "type": "Feature", "properties": { "Status": "M", "Score": 100.0, "Match_type": "A", "Match_addr": "1501 E 83RD PL, 60619", "Side": "R", "Ref_ID": 1664, "User_fld": "0", "Addr_type": "StreetAddress", "ARC_Street": "1501 E 83rd Pl.", "ARC_ZIP": "60619", "schid": "15016299025201CAE08", "name": "Cics-Avalon \/So Shore", "F3": "*", "Address": "1501 E 83rd Pl.", "CITY": "Chicago", "ZIP": 60619.0, "distid": "150162990250000", "dist": "City of Chicago SD 299", "city1": "Chicago", "county": "Cook", "type": "CHARTER NET SCH" }, "geometry": { "type": "Point", "coordinates": [ -87.587928163463644, 41.743206859864969 ] } },
{ "type": "Feature", "properties": { "Status": "M", "Score": 100.0, "Match_type": "A", "Match_addr": "1816 W GARFIELD BLVD, 60609", "Side": "R", "Ref_ID": 28020, "User_fld": "0", "Addr_type": "StreetAddress", "ARC_Street": "1816 W Garfield Blvd.", "ARC_ZIP": "60609", "schid": "15016299025201CAE05", "name": "Cics-Basil", "F3": "*", "Address": "1816 W Garfield Blvd.", "CITY": "Chicago", "ZIP": 60609.0, "distid": "150162990250000", "dist": "City of Chicago SD 299", "city1": "Chicago", "county": "Cook", "type": "CHARTER NET SCH" }, "geometry": { "type": "Point", "coordinates": [ -87.670242240578546, 41.794015423786298 ] } },
{ "type": "Feature", "properties": { "Status": "M", "Score": 100.0, "Match_type": "A", "Match_addr": "2235 N HAMILTON AVE, 60647", "Side": "R", "Ref_ID": 22655, "User_fld": "0", "Addr_type": "StreetAddress", "ARC_Street": "2235 N Hamilton Ave.", "ARC_ZIP": "60647", "schid": "15016299025201CAE01", "name": "Cics-Bucktown", "F3": "*", "Address": "2235 N Hamilton Ave.", "CITY": "Chicago", "ZIP": 60647.0, "distid": "150162990250000", "dist": "City of Chicago SD 299", "city1": "Chicago", "county": "Cook", "type": "CHARTER NET SCH" }, "geometry": { "type": "Point", "coordinates": [ -87.681394695913895, 41.922413908594585 ] } },
{ "type": "Feature", "properties": { "Status": "M", "Score": 100.0, "Match_type": "A", "Match_addr": "1443 N OGDEN AVE, 60610", "Side": "R", "Ref_ID": 52056, "User_fld": "0", "Addr_type": "StreetAddress", "ARC_Street": "1443 N Ogden Ave.", "ARC_ZIP": "60610", "schid": "15016299025201CAE15", "name": "CICS-Chicago Quest North", "F3": "*", "Address": "1443 N Ogden Ave.", "CITY": "Chicago", "ZIP": 60610.0, "distid": "150162990250000", "dist": "City of Chicago SD 299", "city1": "Chicago", "county": "Cook", "type": "CHARTER NET SCH" }, "geometry": { "type": "Point", "coordinates": [ -87.645593914346549, 41.907809708374224 ] } },
{ "type": "Feature", "properties": { "Status": "M", "Score": 100.0, "Match_type": "A", "Match_addr": "1817 W 80TH ST, 60620", "Side": "L", "Ref_ID": 48408, "User_fld": "0", "Addr_type": "StreetAddress", "ARC_Street": "1817 W 80th St.", "ARC_ZIP": "60620", "schid": "15016299025201CAE10", "name": "Cics-Ellison", "F3": "*", "Address": "1817 W 80th St.", "CITY": "Chicago", "ZIP": 60620.0, "distid": "150162990250000", "dist": "City of Chicago SD 299", "city1": "Chicago", "county": "Cook", "type": "CHARTER NET SCH" }, "geometry": { "type": "Point", "coordinates": [ -87.668980231049417, 41.748409847221495 ] } },
{ "type": "Feature", "properties": { "Status": "M", "Score": 100.0, "Match_type": "A", "Match_addr": "801 E 133RD PL, 60827", "Side": "R", "Ref_ID": 38944, "User_fld": "0", "Addr_type": "StreetAddress", "ARC_Street": "801 E 133rd Pl.", "ARC_ZIP": "60827", "schid": "15016299025201CAE14", "name": "Cics-Hawkins", "F3": "*", "Address": "801 E 133rd Pl.", "CITY": "Chicago", "ZIP": 60827.0, "distid": "150162990250000", "dist": "City of Chicago SD 299", "city1": "Chicago", "county": "Cook", "type": "CHARTER NET SCH" }, "geometry": { "type": "Point", "coordinates": [ -87.60188560139575, 41.653166898619489 ] } },
{ "type": "Feature", "properties": { "Status": "M", "Score": 100.0, "Match_type": "A", "Match_addr": "3820 N SPAULDING AVE, 60618", "Side": "L", "Ref_ID": 46900, "User_fld": "0", "Addr_type": "StreetAddress", "ARC_Street": "3820 N Spaulding Ave.", "ARC_ZIP": "60618", "schid": "15016299025201CAE11", "name": "Cics-Irving Park", "F3": "*", "Address": "3820 N Spaulding Ave.", "CITY": "Chicago", "ZIP": 60618.0, "distid": "150162990250000", "dist": "City of Chicago SD 299", "city1": "Chicago", "county": "Cook", "type": "CHARTER NET SCH" }, "geometry": { "type": "Point", "coordinates": [ -87.710455676463269, 41.950891858622406 ] } },
{ "type": "Feature", "properties": { "Status": "M", "Score": 100.0, "Match_type": "A", "Match_addr": "13300 S LANGLEY AVE, 60827", "Side": "R", "Ref_ID": 1467, "User_fld": "0", "Addr_type": "StreetAddress", "ARC_Street": "13300 S Langley Ave.", "ARC_ZIP": "60827", "schid": "15016299025201CAE13", "name": "Cics-Lloyd Bond", "F3": "*", "Address": "13300 S Langley Ave.", "CITY": "Chicago", "ZIP": 60827.0, "distid": "150162990250000", "dist": "City of Chicago SD 299", "city1": "Chicago", "county": "Cook", "type": "CHARTER NET SCH" }, "geometry": { "type": "Point", "coordinates": [ -87.605002927251121, 41.653667574750024 ] } },
{ "type": "Feature", "properties": { "Status": "M", "Score": 100.0, "Match_type": "A", "Match_addr": "1309 W 95TH ST, 60643", "Side": "L", "Ref_ID": 45703, "User_fld": "0", "Addr_type": "StreetAddress", "ARC_Street": "1309 W 95th St.", "ARC_ZIP": "60643", "schid": "15016299025201CAE02", "name": "Cics-Longwood", "F3": "*", "Address": "1309 W 95th St.", "CITY": "Chicago", "ZIP": 60643.0, "distid": "150162990250000", "dist": "City of Chicago SD 299", "city1": "Chicago", "county": "Cook", "type": "CHARTER NET SCH" }, "geometry": { "type": "Point", "coordinates": [ -87.655768753962121, 41.721248871436224 ] } },
{ "type": "Feature", "properties": { "Status": "M", "Score": 100.0, "Match_type": "A", "Match_addr": "9535 S LOOMIS ST, 60643", "Side": "L", "Ref_ID": 31509, "User_fld": "0", "Addr_type": "StreetAddress", "ARC_Street": "9535 S Loomis St.", "ARC_ZIP": "60643", "schid": "15016299025201CAE12", "name": "Cics-Loomis Primary Campus (K-2)", "F3": "*", "Address": "9535 S Loomis St.", "CITY": "Chicago", "ZIP": 60643.0, "distid": "150162990250000", "dist": "City of Chicago SD 299", "city1": "Chicago", "county": "Cook", "type": "CHARTER NET SCH" }, "geometry": { "type": "Point", "coordinates": [ -87.657597679215741, 41.720245854122368 ] } },
{ "type": "Feature", "properties": { "Status": "M", "Score": 100.0, "Match_type": "A", "Match_addr": "3900 W PETERSON AVE, 60659", "Side": "R", "Ref_ID": 45870, "User_fld": "0", "Addr_type": "StreetAddress", "ARC_Street": "3900 W Peterson Ave.", "ARC_ZIP": "60659", "schid": "15016299025201CAE06", "name": "Cics-Northtown", "F3": "*", "Address": "3900 W Peterson Ave.", "CITY": "Chicago", "ZIP": 60659.0, "distid": "150162990250000", "dist": "City of Chicago SD 299", "city1": "Chicago", "county": "Cook", "type": "CHARTER NET SCH" }, "geometry": { "type": "Point", "coordinates": [ -87.726503663601704, 41.990217573967733 ] } },
{ "type": "Feature", "properties": { "Status": "M", "Score": 100.0, "Match_type": "A", "Match_addr": "11530 S PRAIRIE AVE, 60628", "Side": "R", "Ref_ID": 47522, "User_fld": "0", "Addr_type": "StreetAddress", "ARC_Street": "11530 S Prairie Ave.", "ARC_ZIP": "60628", "schid": "15016299025201CAE03", "name": "Cics-Prairie", "F3": "*", "Address": "11530 S Prairie Ave.", "CITY": "Chicago", "ZIP": 60628.0, "distid": "150162990250000", "dist": "City of Chicago SD 299", "city1": "Chicago", "county": "Cook", "type": "CHARTER NET SCH" }, "geometry": { "type": "Point", "coordinates": [ -87.616851775041781, 41.684433232882512 ] } },
{ "type": "Feature", "properties": { "Status": "M", "Score": 100.0, "Match_type": "A", "Match_addr": "110 E 61ST ST, 60637", "Side": "L", "Ref_ID": 14557, "User_fld": "0", "Addr_type": "StreetAddress", "ARC_Street": "110 E 61st St.", "ARC_ZIP": "60637", "schid": "15016299025201CAE04", "name": "Cics-Washington Park", "F3": "*", "Address": "110 E 61st St.", "CITY": "Chicago", "ZIP": 60637.0, "distid": "150162990250000", "dist": "City of Chicago SD 299", "city1": "Chicago", "county": "Cook", "type": "CHARTER NET SCH" }, "geometry": { "type": "Point", "coordinates": [ -87.621712602666108, 41.783833449358966 ] } },
{ "type": "Feature", "properties": { "Status": "M", "Score": 100.0, "Match_type": "A", "Match_addr": "2245 N MCVICKER AVE, 60639", "Side": "R", "Ref_ID": 2722, "User_fld": "0", "Addr_type": "StreetAddress", "ARC_Street": "2245 N McVicker Ave.", "ARC_ZIP": "60639", "schid": "15016299025201CAE07", "name": "Cics-West Belden", "F3": "*", "Address": "2245 N McVicker Ave.", "CITY": "Chicago", "ZIP": 60639.0, "distid": "150162990250000", "dist": "City of Chicago SD 299", "city1": "Chicago", "county": "Cook", "type": "CHARTER NET SCH" }, "geometry": { "type": "Point", "coordinates": [ -87.776785269893878, 41.921686761192397 ] } },
{ "type": "Feature", "properties": { "Status": "M", "Score": 100.0, "Match_type": "A", "Match_addr": "8130 S CALIFORNIA AVE, 60652", "Side": "R", "Ref_ID": 46549, "User_fld": "0", "Addr_type": "StreetAddress", "ARC_Street": "8130 S California Ave.", "ARC_ZIP": "60652", "schid": "15016299025201CAE09", "name": "Cics-Wrightwood", "F3": "*", "Address": "8130 S California Ave.", "CITY": "Chicago", "ZIP": 60652.0, "distid": "150162990250000", "dist": "City of Chicago SD 299", "city1": "Chicago", "county": "Cook", "type": "CHARTER NET SCH" }, "geometry": { "type": "Point", "coordinates": [ -87.692577763202905, 41.745365987764963 ] } },
{ "type": "Feature", "properties": { "Status": "M", "Score": 100.0, "Match_type": "A", "Match_addr": "2520 S WESTERN AVE, 60608", "Side": "R", "Ref_ID": 20006, "User_fld": "0", "Addr_type": "StreetAddress", "ARC_Street": "2520 S Western Ave.", "ARC_ZIP": "60608", "schid": "15016299025020CBS00", "name": "Instituto Acad Chtr Health Sciences", "F3": "*", "Address": "2520 S Western Ave.", "CITY": "Chicago", "ZIP": 60608.0, "distid": "150162990250000", "dist": "City of Chicago SD 299", "city1": "Chicago", "county": "Cook", "type": "CHARTER NET SCH" }, "geometry": { "type": "Point", "coordinates": [ -87.68554721992291, 41.845965330893975 ] } },
{ "type": "Feature", "properties": { "Status": "M", "Score": 100.0, "Match_type": "A", "Match_addr": "2570 S BLUE ISLAND AVE, 60608", "Side": "R", "Ref_ID": 51348, "User_fld": "0", "Addr_type": "StreetAddress", "ARC_Street": "2570 S. Blue Island Ave.", "ARC_ZIP": "60608", "schid": "15016299025020CBS01a", "name": "Instituto Chtr Rudy Lozano Mastery", "F3": "*", "Address": "2570 S. Blue Island Ave.", "CITY": "Chicago", "ZIP": 60608.0, "distid": "150162990250000", "dist": "City of Chicago SD 299", "city1": "Chicago", "county": "Cook", "type": "CHARTER NET SCH" }, "geometry": { "type": "Point", "coordinates": [ -87.684048134259584, 41.84542161999417 ] } },
{ "type": "Feature", "properties": { "Status": "M", "Score": 100.0, "Match_type": "A", "Match_addr": "2570 S BLUE ISLAND AVE, 60608", "Side": "R", "Ref_ID": 51348, "User_fld": "0", "Addr_type": "StreetAddress", "ARC_Street": "2570 S. Blue Island Ave.", "ARC_ZIP": "60608", "schid": "15016299025020CBS01", "name": "Instituto Justice Chtr Acad", "F3": "*", "Address": "2570 S. Blue Island Ave.", "CITY": "Chicago", "ZIP": 60608.0, "distid": "150162990250000", "dist": "City of Chicago SD 299", "city1": "Chicago", "county": "Cook", "type": "CHARTER NET SCH" }, "geometry": { "type": "Point", "coordinates": [ -87.684048134259584, 41.84542161999417 ] } },
{ "type": "Feature", "properties": { "Status": "M", "Score": 100.0, "Match_type": "A", "Match_addr": "8914 S BUFFALO AVE, 60617", "Side": "R", "Ref_ID": 5064, "User_fld": "0", "Addr_type": "StreetAddress", "ARC_Street": "8914 S Buffalo Ave.", "ARC_ZIP": "60617", "schid": "15016299025208CAN03", "name": "Learn Chrt - So Chicago", "F3": "*", "Address": "8914 S Buffalo Ave.", "CITY": "Chicago", "ZIP": 60617.0, "distid": "150162990250000", "dist": "City of Chicago SD 299", "city1": "Chicago", "county": "Cook", "type": "CHARTER NET SCH" }, "geometry": { "type": "Point", "coordinates": [ -87.54444181747705, 41.733329656129619 ] } },
{ "type": "Feature", "properties": { "Status": "M", "Score": 100.0, "Match_type": "A", "Match_addr": "212 S FRANCISCO AVE, 60612", "Side": "R", "Ref_ID": 32217, "User_fld": "0", "Addr_type": "StreetAddress", "ARC_Street": "212 S Francisco Ave.", "ARC_ZIP": "60612", "schid": "15016299025208CAN02", "name": "Learn Chtr - Campbell", "F3": "*", "Address": "212 S Francisco Ave.", "CITY": "Chicago", "ZIP": 60612.0, "distid": "150162990250000", "dist": "City of Chicago SD 299", "city1": "Chicago", "county": "Cook", "type": "CHARTER NET SCH" }, "geometry": { "type": "Point", "coordinates": [ -87.698702007949777, 41.877861124996969 ] } },
{ "type": "Feature", "properties": { "Status": "M", "Score": 100.0, "Match_type": "A", "Match_addr": "1700 W 83RD ST, 60620", "Side": "R", "Ref_ID": 45683, "User_fld": "0", "Addr_type": "StreetAddress", "ARC_Street": "1700 W 83rd St.", "ARC_ZIP": "60620", "schid": "15016299025208CAN04", "name": "Learn Chtr - Hunter Perkins", "F3": "*", "Address": "1700 W 83rd St.", "CITY": "Chicago", "ZIP": 60620.0, "distid": "150162990250000", "dist": "City of Chicago SD 299", "city1": "Chicago", "county": "Cook", "type": "CHARTER NET SCH" }, "geometry": { "type": "Point", "coordinates": [ -87.665720435505236, 41.743094331891569 ] } },
{ "type": "Feature", "properties": { "Status": "M", "Score": 100.0, "Match_type": "A", "Match_addr": "3021 W CARROLL AVE, 60612", "Side": "L", "Ref_ID": 52331, "User_fld": "0", "Addr_type": "StreetAddress", "ARC_Street": "3021 W Carroll Ave.", "ARC_ZIP": "60612", "schid": "15016299025208CAN05", "name": "Learn Chtr 7", "F3": "*", "Address": "3021 W Carroll Ave.", "CITY": "Chicago", "ZIP": 60612.0, "distid": "150162990250000", "dist": "City of Chicago SD 299", "city1": "Chicago", "county": "Cook", "type": "CHARTER NET SCH" }, "geometry": { "type": "Point", "coordinates": [ -87.702165850997801, 41.887516359522969 ] } },
{ "type": "Feature", "properties": { "Status": "M", "Score": 100.0, "Match_type": "A", "Match_addr": "1132 S HOMAN AVE, 60624", "Side": "R", "Ref_ID": 41294, "User_fld": "0", "Addr_type": "StreetAddress", "ARC_Street": "1132 S Homan Ave.", "ARC_ZIP": "60624", "schid": "15016299025208CAN06", "name": "Learn Chtr Butler", "F3": "*", "Address": "1132 S Homan Ave.", "CITY": "Chicago", "ZIP": 60624.0, "distid": "150162990250000", "dist": "City of Chicago SD 299", "city1": "Chicago", "county": "Cook", "type": "CHARTER NET SCH" }, "geometry": { "type": "Point", "coordinates": [ -87.710642783509158, 41.867273510411479 ] } },
{ "type": "Feature", "properties": { "Status": "M", "Score": 100.0, "Match_type": "A", "Match_addr": "3021 W CARROLL AVE, 60612", "Side": "L", "Ref_ID": 52331, "User_fld": "0", "Addr_type": "StreetAddress", "ARC_Street": "3021 W Carroll Ave.", "ARC_ZIP": "60612", "schid": "15016299025208CAN01", "name": "Learn Chtr Excel", "F3": "*", "Address": "3021 W Carroll Ave.", "CITY": "Chicago", "ZIP": 60612.0, "distid": "150162990250000", "dist": "City of Chicago SD 299", "city1": "Chicago", "county": "Cook", "type": "CHARTER NET SCH" }, "geometry": { "type": "Point", "coordinates": [ -87.702165850997801, 41.887516359522969 ] } },
{ "type": "Feature", "properties": { "Status": "M", "Score": 100.0, "Match_type": "A", "Match_addr": "3021 W CARROLL AVE, 60612", "Side": "L", "Ref_ID": 52331, "User_fld": "0", "Addr_type": "StreetAddress", "ARC_Street": "3021 W. Carroll Ave.", "ARC_ZIP": "60612", "schid": "15016299025208CAN07", "name": "Learn Chtr Middle School", "F3": "*", "Address": "3021 W. Carroll Ave.", "CITY": "Chicago", "ZIP": 60612.0, "distid": "150162990250000", "dist": "City of Chicago SD 299", "city1": "Chicago", "county": "Cook", "type": "CHARTER NET SCH" }, "geometry": { "type": "Point", "coordinates": [ -87.702165850997801, 41.887516359522969 ] } },
{ "type": "Feature", "properties": { "Status": "M", "Score": 100.0, "Match_type": "A", "Match_addr": "2710 E 89TH ST, 60617", "Side": "L", "Ref_ID": 27069, "User_fld": "0", "Addr_type": "StreetAddress", "ARC_Street": "2710 E 89th St.", "ARC_ZIP": "60617", "schid": "15016299025006CAF13", "name": "Noble St Chtr - Baker Campus", "F3": "*", "Address": "2710 E 89th St.", "CITY": "Chicago", "ZIP": 60617.0, "distid": "150162990250000", "dist": "City of Chicago SD 299", "city1": "Chicago", "county": "Cook", "type": "CHARTER NET SCH" }, "geometry": { "type": "Point", "coordinates": [ -87.557759235119534, 41.733706093523509 ] } },
{ "type": "Feature", "properties": { "Status": "M", "Score": 100.0, "Match_type": "A", "Match_addr": "821 E 103RD ST, 60628", "Side": "R", "Ref_ID": 55540, "User_fld": "0", "Addr_type": "StreetAddress", "ARC_Street": "821 E 103rd St.", "ARC_ZIP": "60628", "schid": "15016299025006CAF12", "name": "Noble St Chtr - Pullman Campus (Butler)", "F3": "*", "Address": "821 E 103rd St.", "CITY": "Chicago", "ZIP": 60628.0, "distid": "150162990250000", "dist": "City of Chicago SD 299", "city1": "Chicago", "county": "Cook", "type": "CHARTER NET SCH" }, "geometry": { "type": "Point", "coordinates": [ -87.603064354501441, 41.707446074821945 ] } },
{ "type": "Feature", "properties": { "Status": "M", "Score": 100.0, "Match_type": "A", "Match_addr": "8748 S ABERDEEN ST, 60620", "Side": "R", "Ref_ID": 17332, "User_fld": "0", "Addr_type": "StreetAddress", "ARC_Street": "8748 S Aberdeen St.", "ARC_ZIP": "60620", "schid": "15016299025006CAF10", "name": "Noble St Chtr-Auburn-Gresham Coll (Haneberrt)", "F3": "*", "Address": "8748 S Aberdeen St.", "CITY": "Chicago", "ZIP": 60620.0, "distid": "150162990250000", "dist": "City of Chicago SD 299", "city1": "Chicago", "county": "Cook", "type": "CHARTER NET SCH" }, "geometry": { "type": "Point", "coordinates": [ -87.65095010311174, 41.734442306366738 ] } },
{ "type": "Feature", "properties": { "Status": "M", "Score": 100.0, "Match_type": "A", "Match_addr": "2040 W ADAMS ST, 60612", "Side": "R", "Ref_ID": 22972, "User_fld": "0", "Addr_type": "StreetAddress", "ARC_Street": "2040 W Adams St.", "ARC_ZIP": "60612", "schid": "15016299025006CAF07", "name": "Noble St Chtr-Chgo Bulls", "F3": "*", "Address": "2040 W Adams St.", "CITY": "Chicago", "ZIP": 60612.0, "distid": "150162990250000", "dist": "City of Chicago SD 299", "city1": "Chicago", "county": "Cook", "type": "CHARTER NET SCH" }, "geometry": { "type": "Point", "coordinates": [ -87.678194486254483, 41.878781373020985 ] } },
{ "type": "Feature", "properties": { "Status": "M", "Score": 100.0, "Match_type": "A", "Match_addr": "7131 S SOUTH CHICAGO AVE, 60619", "Side": "L", "Ref_ID": 55305, "User_fld": "0", "Addr_type": "StreetAddress", "ARC_Street": "7131 S South Chicago Ave.", "ARC_ZIP": "60619", "schid": "15016299025006CAF05", "name": "Noble St Chtr-Comer", "F3": "*", "Address": "7131 S South Chicago Ave.", "CITY": "Chicago", "ZIP": 60619.0, "distid": "150162990250000", "dist": "City of Chicago SD 299", "city1": "Chicago", "county": "Cook", "type": "CHARTER NET SCH" }, "geometry": { "type": "Point", "coordinates": [ -87.604598128477065, 41.765254424355724 ] } },
{ "type": "Feature", "properties": { "Status": "M", "Score": 100.0, "Match_type": "A", "Match_addr": "931 S HOMAN AVE, 60624", "Side": "L", "Ref_ID": 4187, "User_fld": "0", "Addr_type": "StreetAddress", "ARC_Street": "931 S Homan Ave.", "ARC_ZIP": "60624", "schid": "15016299025006CAF11", "name": "Noble St Chtr-Drw Trading College", "F3": "*", "Address": "931 S Homan Ave.", "CITY": "Chicago", "ZIP": 60624.0, "distid": "150162990250000", "dist": "City of Chicago SD 299", "city1": "Chicago", "county": "Cook", "type": "CHARTER NET SCH" }, "geometry": { "type": "Point", "coordinates": [ -87.710563327140008, 41.869311992691877 ] } },
{ "type": "Feature", "properties": { "Status": "M", "Score": 100.0, "Match_type": "A", "Match_addr": "1454 W SUPERIOR ST, 60642", "Side": "R", "Ref_ID": 53700, "User_fld": "0", "Addr_type": "StreetAddress", "ARC_Street": "1454 W Superior St.", "ARC_ZIP": "60642", "schid": "15016299025006CAF04", "name": "Noble St Chtr-Golder", "F3": "*", "Address": "1454 W Superior St.", "CITY": "Chicago", "ZIP": 60642.0, "distid": "150162990250000", "dist": "City of Chicago SD 299", "city1": "Chicago", "county": "Cook", "type": "CHARTER NET SCH" }, "geometry": { "type": "Point", "coordinates": [ -87.664482234786433, 41.89525475852561 ] } },
{ "type": "Feature", "properties": { "Status": "M", "Score": 100.0, "Match_type": "A", "Match_addr": "1 N STATE ST, 60602", "Side": "R", "Ref_ID": 46412, "User_fld": "0", "Addr_type": "StreetAddress", "ARC_Street": "1 N State St.", "ARC_ZIP": "60602", "schid": "15016299025006CAF08", "name": "Noble St Chtr-Muchin", "F3": "*", "Address": "1 N State St.", "CITY": "Chicago", "ZIP": 60602.0, "distid": "150162990250000", "dist": "City of Chicago SD 299", "city1": "Chicago", "county": "Cook", "type": "CHARTER NET SCH" }, "geometry": { "type": "Point", "coordinates": [ -87.627741112615396, 41.882085651123816 ] } },
{ "type": "Feature", "properties": { "Status": "M", "Score": 100.0, "Match_type": "PP", "Match_addr": null, "Side": null, "Ref_ID": 0, "User_fld": null, "Addr_type": null, "ARC_Street": "1010 N NOBLE ST.", "ARC_ZIP": "60622", "schid": "15016299025006CAF14", "name": "Noble St Chtr-Noble", "F3": "*", "Address": "1010 N Noble St.", "CITY": null, "ZIP": 0.0, "distid": "150162990250000", "dist": "City of Chicago SD 299", "city1": "Chicago", "county": "Cook", "type": "CHARTER NET SCH" }, "geometry": { "type": "Point", "coordinates": [ -87.662936231621018, 41.900172351346058 ] } },
{ "type": "Feature", "properties": { "Status": "M", "Score": 100.0, "Match_type": "A", "Match_addr": "4131 W CORTLAND ST, 60639", "Side": "L", "Ref_ID": 44726, "User_fld": "0", "Addr_type": "StreetAddress", "ARC_Street": "4131 W Cortland St.", "ARC_ZIP": "60639", "schid": "15016299025006CAF01", "name": "Noble St Chtr-Pritzker", "F3": "*", "Address": "4131 W Cortland St.", "CITY": "Chicago", "ZIP": 60639.0, "distid": "150162990250000", "dist": "City of Chicago SD 299", "city1": "Chicago", "county": "Cook", "type": "CHARTER NET SCH" }, "geometry": { "type": "Point", "coordinates": [ -87.730126831291358, 41.915241548891501 ] } },
{ "type": "Feature", "properties": { "Status": "M", "Score": 100.0, "Match_type": "A", "Match_addr": "1337 W OHIO ST, 60642", "Side": "L", "Ref_ID": 54183, "User_fld": "0", "Addr_type": "StreetAddress", "ARC_Street": "1337 W Ohio St.", "ARC_ZIP": "60642", "schid": "15016299025006CAF02", "name": "Noble St Chtr-Rauner", "F3": "*", "Address": "1337 W Ohio St.", "CITY": "Chicago", "ZIP": 60642.0, "distid": "150162990250000", "dist": "City of Chicago SD 299", "city1": "Chicago", "county": "Cook", "type": "CHARTER NET SCH" }, "geometry": { "type": "Point", "coordinates": [ -87.660859552738117, 41.892452449181597 ] } },
{ "type": "Feature", "properties": { "Status": "M", "Score": 100.0, "Match_type": "A", "Match_addr": "3645 W CHICAGO AVE, 60651", "Side": "L", "Ref_ID": 31534, "User_fld": "0", "Addr_type": "StreetAddress", "ARC_Street": "3645 W Chicago Ave.", "ARC_ZIP": "60651", "schid": "15016299025006CAF03", "name": "Noble St Chtr-Rowe Clark", "F3": "*", "Address": "3645 W Chicago Ave.", "CITY": "Chicago", "ZIP": 60651.0, "distid": "150162990250000", "dist": "City of Chicago SD 299", "city1": "Chicago", "county": "Cook", "type": "CHARTER NET SCH" }, "geometry": { "type": "Point", "coordinates": [ -87.718047300047729, 41.895389697653783 ] } },
{ "type": "Feature", "properties": { "Status": "M", "Score": 100.0, "Match_type": "A", "Match_addr": "1231 S DAMEN AVE, 60608", "Side": "L", "Ref_ID": 28312, "User_fld": "0", "Addr_type": "StreetAddress", "ARC_Street": "1231 S Damen Ave.", "ARC_ZIP": "60608", "schid": "15016299025006CAF06", "name": "Noble St Chtr-Uic", "F3": "*", "Address": "1231 S Damen Ave.", "CITY": "Chicago", "ZIP": 60608.0, "distid": "150162990250000", "dist": "City of Chicago SD 299", "city1": "Chicago", "county": "Cook", "type": "CHARTER NET SCH" }, "geometry": { "type": "Point", "coordinates": [ -87.676147629038596, 41.865816712414002 ] } },
{ "type": "Feature", "properties": { "Status": "M", "Score": 100.0, "Match_type": "A", "Match_addr": "6350 S STEWART AVE, 60621", "Side": "R", "Ref_ID": 11487, "User_fld": "0", "Addr_type": "StreetAddress", "ARC_Street": "6350 S Stewart Ave.", "ARC_ZIP": "60621", "schid": "15016299025006CAF09", "name": "Noble Street Chtr - Johnson", "F3": "*", "Address": "6350 S Stewart Ave.", "CITY": "Chicago", "ZIP": 60621.0, "distid": "150162990250000", "dist": "City of Chicago SD 299", "city1": "Chicago", "county": "Cook", "type": "CHARTER NET SCH" }, "geometry": { "type": "Point", "coordinates": [ -87.635080044566223, 41.778370053757762 ] } },
{ "type": "Feature", "properties": { "Status": "M", "Score": 100.0, "Match_type": "A", "Match_addr": "1615 S CHRISTIANA AVE, 60623", "Side": "L", "Ref_ID": 5273, "User_fld": "0", "Addr_type": "StreetAddress", "ARC_Street": "1615 S Christiana Ave.", "ARC_ZIP": "60623", "schid": "15016299025005CAH00", "name": "Nth Lawndale Chtr-Christiana", "F3": "*", "Address": "1615 S Christiana Ave.", "CITY": "Chicago", "ZIP": 60623.0, "distid": "150162990250000", "dist": "City of Chicago SD 299", "city1": "Chicago", "county": "Cook", "type": "CHARTER NET SCH" }, "geometry": { "type": "Point", "coordinates": [ -87.709023811747826, 41.85856304504415 ] } },
{ "type": "Feature", "properties": { "Status": "M", "Score": 100.0, "Match_type": "A", "Match_addr": "1313 S SACRAMENTO DR, 60623", "Side": "L", "Ref_ID": 18985, "User_fld": "0", "Addr_type": "StreetAddress", "ARC_Street": "1313 S Sacramento Dr.", "ARC_ZIP": "60623", "schid": "15016299025005CAH01", "name": "Nth Lawndale Chtr-Collins", "F3": "*", "Address": "1313 S Sacramento Dr.", "CITY": "Chicago", "ZIP": 60623.0, "distid": "150162990250000", "dist": "City of Chicago SD 299", "city1": "Chicago", "county": "Cook", "type": "CHARTER NET SCH" }, "geometry": { "type": "Point", "coordinates": [ -87.702077609054101, 41.864143281578123 ] } },
{ "type": "Feature", "properties": { "Status": "M", "Score": 100.0, "Match_type": "A", "Match_addr": "8131 S MAY ST, 60620", "Side": "L", "Ref_ID": 3771, "User_fld": "0", "Addr_type": "StreetAddress", "ARC_Street": "8131 S May St.", "ARC_ZIP": "60620", "schid": "15016299025003CAJ02", "name": "Perspectives Chtr - Leadership Academy", "F3": "*", "Address": "8131 S May St.", "CITY": "Chicago", "ZIP": 60620.0, "distid": "150162990250000", "dist": "City of Chicago SD 299", "city1": "Chicago", "county": "Cook", "type": "CHARTER NET SCH" }, "geometry": { "type": "Point", "coordinates": [ -87.652328137289359, 41.745934628648229 ] } },
{ "type": "Feature", "properties": { "Status": "M", "Score": 100.0, "Match_type": "A", "Match_addr": "8131 S MAY ST, 60620", "Side": "L", "Ref_ID": 3771, "User_fld": "0", "Addr_type": "StreetAddress", "ARC_Street": "8131 S May St.", "ARC_ZIP": "60620", "schid": "15016299025003CAJ04", "name": "Perspectives Chtr Calumet Tech", "F3": "*", "Address": "8131 S May St.", "CITY": "Chicago", "ZIP": 60620.0, "distid": "150162990250000", "dist": "City of Chicago SD 299", "city1": "Chicago", "county": "Cook", "type": "CHARTER NET SCH" }, "geometry": { "type": "Point", "coordinates": [ -87.652328137289359, 41.745934628648229 ] } },
{ "type": "Feature", "properties": { "Status": "M", "Score": 100.0, "Match_type": "A", "Match_addr": "3663 S WABASH AVE, 60653", "Side": "L", "Ref_ID": 43432, "User_fld": "0", "Addr_type": "StreetAddress", "ARC_Street": "3663 S Wabash Ave.", "ARC_ZIP": "60653", "schid": "15016299025003CAJ05", "name": "Perspectives Chtr Iit", "F3": "*", "Address": "3663 S Wabash Ave.", "CITY": "Chicago", "ZIP": 60653.0, "distid": "150162990250000", "dist": "City of Chicago SD 299", "city1": "Chicago", "county": "Cook", "type": "CHARTER NET SCH" }, "geometry": { "type": "Point", "coordinates": [ -87.624824405400531, 41.827783412893197 ] } },
{ "type": "Feature", "properties": { "Status": "M", "Score": 100.0, "Match_type": "A", "Match_addr": "1930 S ARCHER AVE, 60616", "Side": "R", "Ref_ID": 19067, "User_fld": "0", "Addr_type": "StreetAddress", "ARC_Street": "1930 S Archer Ave.", "ARC_ZIP": "60616", "schid": "15016299025003CAJ01", "name": "Perspectives Chtr Joslin", "F3": "*", "Address": "1930 S Archer Ave.", "CITY": "Chicago", "ZIP": 60616.0, "distid": "150162990250000", "dist": "City of Chicago SD 299", "city1": "Chicago", "county": "Cook", "type": "CHARTER NET SCH" }, "geometry": { "type": "Point", "coordinates": [ -87.628510989189436, 41.855976051777482 ] } },
{ "type": "Feature", "properties": { "Status": "M", "Score": 100.0, "Match_type": "A", "Match_addr": "4934 S WABASH AVE, 60615", "Side": "R", "Ref_ID": 15342, "User_fld": "0", "Addr_type": "StreetAddress", "ARC_Street": "4934 S. Wabash Ave.", "ARC_ZIP": "60615", "schid": "15016299025203CAD01", "name": "Shabazz Chtr-Dusable", "F3": "*", "Address": "4934 S. Wabash Ave.", "CITY": "Chicago", "ZIP": 60615.0, "distid": "150162990250000", "dist": "City of Chicago SD 299", "city1": "Chicago", "county": "Cook", "type": "CHARTER NET SCH" }, "geometry": { "type": "Point", "coordinates": [ -87.62441056263728, 41.804558781677144 ] } },
{ "type": "Feature", "properties": { "Status": "M", "Score": 100.0, "Match_type": "A", "Match_addr": "7823 S ELLIS AVE, 60619", "Side": "L", "Ref_ID": 6932, "User_fld": "0", "Addr_type": "StreetAddress", "ARC_Street": "7823 S Ellis Ave.", "ARC_ZIP": "60619", "schid": "15016299025203CAD03", "name": "Shabazz Chtr-Shabazz", "F3": "*", "Address": "7823 S Ellis Ave.", "CITY": "Chicago", "ZIP": 60619.0, "distid": "150162990250000", "dist": "City of Chicago SD 299", "city1": "Chicago", "county": "Cook", "type": "CHARTER NET SCH" }, "geometry": { "type": "Point", "coordinates": [ -87.60029119509926, 41.752458040549776 ] } },
{ "type": "Feature", "properties": { "Status": "M", "Score": 100.0, "Match_type": "A", "Match_addr": "6936 S HERMITAGE AVE, 60636", "Side": "R", "Ref_ID": 5660, "User_fld": "0", "Addr_type": "StreetAddress", "ARC_Street": "6936 S Hermitage Ave.", "ARC_ZIP": "60636", "schid": "15016299025203CAD02", "name": "Shabazz Chtr-Sizemore", "F3": "*", "Address": "6936 S Hermitage Ave.", "CITY": "Chicago", "ZIP": 60636.0, "distid": "150162990250000", "dist": "City of Chicago SD 299", "city1": "Chicago", "county": "Cook", "type": "CHARTER NET SCH" }, "geometry": { "type": "Point", "coordinates": [ -87.667602360525663, 41.767390677238623 ] } },
{ "type": "Feature", "properties": { "Status": "M", "Score": 100.0, "Match_type": "A", "Match_addr": "707 E 37TH ST, 60653", "Side": "R", "Ref_ID": 32482, "User_fld": "0", "Addr_type": "StreetAddress", "ARC_Street": "707 E 37th St.", "ARC_ZIP": "60653", "schid": "15016299025204CAG02", "name": "Univ Of Chgo Chtr-Donoghue", "F3": "*", "Address": "707 E 37th St.", "CITY": "Chicago", "ZIP": 60653.0, "distid": "150162990250000", "dist": "City of Chicago SD 299", "city1": "Chicago", "county": "Cook", "type": "CHARTER NET SCH" }, "geometry": { "type": "Point", "coordinates": [ -87.608514290099507, 41.827751595595402 ] } },
{ "type": "Feature", "properties": { "Status": "M", "Score": 100.0, "Match_type": "A", "Match_addr": "1119 E 46TH ST, 60653", "Side": "R", "Ref_ID": 23726, "User_fld": "0", "Addr_type": "StreetAddress", "ARC_Street": "1119 E 46th St.", "ARC_ZIP": "60653", "schid": "15016299025204CAG01", "name": "Univ Of Chgo Chtr-Nko", "F3": "*", "Address": "1119 E 46th St.", "CITY": "Chicago", "ZIP": 60653.0, "distid": "150162990250000", "dist": "City of Chicago SD 299", "city1": "Chicago", "county": "Cook", "type": "CHARTER NET SCH" }, "geometry": { "type": "Point", "coordinates": [ -87.598519903120405, 41.811389119337306 ] } },
{ "type": "Feature", "properties": { "Status": "M", "Score": 100.0, "Match_type": "A", "Match_addr": "6420 S UNIVERSITY AVE, 60637", "Side": "R", "Ref_ID": 53230, "User_fld": "0", "Addr_type": "StreetAddress", "ARC_Street": "6420 S University Ave.", "ARC_ZIP": "60637", "schid": "15016299025204CAG03", "name": "Univ Of Chgo Chtr-Woodlawn", "F3": "*", "Address": "6420 S University Ave.", "CITY": "Chicago", "ZIP": 60637.0, "distid": "150162990250000", "dist": "City of Chicago SD 299", "city1": "Chicago", "county": "Cook", "type": "CHARTER NET SCH" }, "geometry": { "type": "Point", "coordinates": [ -87.59808044628717, 41.778118505293243 ] } },
{ "type": "Feature", "properties": { "Status": "M", "Score": 100.0, "Match_type": "A", "Match_addr": "4444 S EVANS AVE, 60653", "Side": "R", "Ref_ID": 45822, "User_fld": "0", "Addr_type": "StreetAddress", "ARC_Street": "4444 S Evans Ave.", "ARC_ZIP": "60653", "schid": "15016299025204CAG04", "name": "Univ Of Chgo Chtr-Woodson", "F3": "*", "Address": "4444 S Evans Ave.", "CITY": "Chicago", "ZIP": 60653.0, "distid": "150162990250000", "dist": "City of Chicago SD 299", "city1": "Chicago", "county": "Cook", "type": "CHARTER NET SCH" }, "geometry": { "type": "Point", "coordinates": [ -87.608362532149698, 41.813614835487499 ] } },
{ "type": "Feature", "properties": { "Status": "M", "Score": 100.0, "Match_type": "A", "Match_addr": "4420 S FAIRFIELD AVE, 60632", "Side": "R", "Ref_ID": 40938, "User_fld": "0", "Addr_type": "StreetAddress", "ARC_Street": "4420 S Fairfield Ave.", "ARC_ZIP": "60632", "schid": "400153", "name": "Uno Chtr - Brighton Park (15)", "F3": "*", "Address": "4420 S Fairfield Ave.", "CITY": "Chicago", "ZIP": 60632.0, "distid": "150162990250000", "dist": "City of Chicago SD 299", "city1": "Chicago", "county": "Cook", "type": "CHARTER NET SCH" }, "geometry": { "type": "Point", "coordinates": [ -87.693201710876295, 41.813110018586372 ] } },
{ "type": "Feature", "properties": { "Status": "M", "Score": 100.0, "Match_type": "A", "Match_addr": "2510 W CORTEZ ST, 60622", "Side": "R", "Ref_ID": 33634, "User_fld": "0", "Addr_type": "StreetAddress", "ARC_Street": "2510 W Cortez St.", "ARC_ZIP": "60622", "schid": "15016299025205CAI11", "name": "Uno Chtr - Esmeralda Santiago", "F3": "*", "Address": "2510 W Cortez St.", "CITY": "Chicago", "ZIP": 60622.0, "distid": "150162990250000", "dist": "City of Chicago SD 299", "city1": "Chicago", "county": "Cook", "type": "CHARTER NET SCH" }, "geometry": { "type": "Point", "coordinates": [ -87.689895062318683, 41.900316196901812 ] } },
{ "type": "Feature", "properties": { "Status": "M", "Score": 100.0, "Match_type": "A", "Match_addr": "4248 W 47TH ST, 60632", "Side": "R", "Ref_ID": 34034, "User_fld": "0", "Addr_type": "StreetAddress", "ARC_Street": "4248 W 47th St.", "ARC_ZIP": "60632", "schid": "15016299025205CAI09", "name": "Uno Chtr - Major Hector P.Garcia", "F3": "*", "Address": "4248 W 47th St.", "CITY": "Chicago", "ZIP": 60632.0, "distid": "150162990250000", "dist": "City of Chicago SD 299", "city1": "Chicago", "county": "Cook", "type": "CHARTER NET SCH" }, "geometry": { "type": "Point", "coordinates": [ -87.730359138438502, 41.807840069642744 ] } },
{ "type": "Feature", "properties": { "Status": "M", "Score": 100.0, "Match_type": "A", "Match_addr": "2050 N NATCHEZ AVE, 60707", "Side": "L", "Ref_ID": 8375, "User_fld": "0", "Addr_type": "StreetAddress", "ARC_Street": "2050 N Natchez Ave.", "ARC_ZIP": "60707", "schid": "15016299025205CAI13", "name": "Uno Chtr - Near West   (Clemente)", "F3": "*", "Address": "2050 N Natchez Ave.", "CITY": "Chicago", "ZIP": 60707.0, "distid": "150162990250000", "dist": "City of Chicago SD 299", "city1": "Chicago", "county": "Cook", "type": "CHARTER NET SCH" }, "geometry": { "type": "Point", "coordinates": [ -87.7877937009889, 41.917952122807527 ] } },
{ "type": "Feature", "properties": { "Status": "M", "Score": 100.0, "Match_type": "A", "Match_addr": "4248 W 47TH ST, 60632", "Side": "R", "Ref_ID": 34034, "User_fld": "0", "Addr_type": "StreetAddress", "ARC_Street": "4248 W 47th St.", "ARC_ZIP": "60632", "schid": "15016299025205CAI08", "name": "Uno Chtr - Pfc Omar E.Torres", "F3": "*", "Address": "4248 W 47th St.", "CITY": "Chicago", "ZIP": 60632.0, "distid": "150162990250000", "dist": "City of Chicago SD 299", "city1": "Chicago", "county": "Cook", "type": "CHARTER NET SCH" }, "geometry": { "type": "Point", "coordinates": [ -87.730359138438502, 41.807840069642744 ] } },
{ "type": "Feature", "properties": { "Status": "M", "Score": 89.04, "Match_type": "A", "Match_addr": "7416 N RIDGE BLVD, 60645", "Side": "L", "Ref_ID": 45228, "User_fld": "0", "Addr_type": "StreetAddress", "ARC_Street": "7416 N Ridge Ave.", "ARC_ZIP": "60645", "schid": "15016299025205CAI14", "name": "Uno Chtr - Rogers Park (Northside)", "F3": "*", "Address": "7416 N Ridge Ave.", "CITY": "Chicago", "ZIP": 60645.0, "distid": "150162990250000", "dist": "City of Chicago SD 299", "city1": "Chicago", "county": "Cook", "type": "CHARTER NET SCH" }, "geometry": { "type": "Point", "coordinates": [ -87.684369013375289, 42.01647817814542 ] } },
{ "type": "Feature", "properties": { "Status": "M", "Score": 100.0, "Match_type": "A", "Match_addr": "5025 S ST LOUIS AVE, 60632", "Side": "L", "Ref_ID": 53962, "User_fld": "0", "Addr_type": "StreetAddress", "ARC_Street": "5025 S St. Louis Ave.", "ARC_ZIP": "60632", "schid": "15016299025205CAI15", "name": "Uno Chtr - Soccer Hs", "F3": "*", "Address": "5025 S St. Louis Ave.", "CITY": "Chicago", "ZIP": 60632.0, "distid": "150162990250000", "dist": "City of Chicago SD 299", "city1": "Chicago", "county": "Cook", "type": "CHARTER NET SCH" }, "geometry": { "type": "Point", "coordinates": [ -87.71106165877417, 41.801762074258072 ] } },
{ "type": "Feature", "properties": { "Status": "M", "Score": 100.0, "Match_type": "A", "Match_addr": "4248 W 47TH ST, 60632", "Side": "R", "Ref_ID": 34034, "User_fld": "0", "Addr_type": "StreetAddress", "ARC_Street": "4248 W 47th St.", "ARC_ZIP": "60632", "schid": "15016299025205CAI07", "name": "Uno Chtr - Spc Daniel Zizumbo", "F3": "*", "Address": "4248 W 47th St.", "CITY": "Chicago", "ZIP": 60632.0, "distid": "150162990250000", "dist": "City of Chicago SD 299", "city1": "Chicago", "county": "Cook", "type": "CHARTER NET SCH" }, "geometry": { "type": "Point", "coordinates": [ -87.730359138438502, 41.807840069642744 ] } },
{ "type": "Feature", "properties": { "Status": "M", "Score": 100.0, "Match_type": "A", "Match_addr": "2744 W PERSHING RD, 60632", "Side": "R", "Ref_ID": 3748, "User_fld": "0", "Addr_type": "StreetAddress", "ARC_Street": "2744 W Pershing Rd.", "ARC_ZIP": "60632", "schid": "15016299025205CAI10", "name": "Uno Chtr -Sandra Cisneros", "F3": "*", "Address": "2744 W Pershing Rd.", "CITY": "Chicago", "ZIP": 60632.0, "distid": "150162990250000", "dist": "City of Chicago SD 299", "city1": "Chicago", "county": "Cook", "type": "CHARTER NET SCH" }, "geometry": { "type": "Point", "coordinates": [ -87.693994895660026, 41.822856315704506 ] } },
{ "type": "Feature", "properties": { "Status": "M", "Score": 100.0, "Match_type": "A", "Match_addr": "5050 S HOMAN AVE, 60632", "Side": "R", "Ref_ID": 37431, "User_fld": "0", "Addr_type": "StreetAddress", "ARC_Street": "5050 S Homan Ave.", "ARC_ZIP": "60632", "schid": "15016299025205CAI12", "name": "Uno Chtr-51St - Homan   (Soccer Elem)", "F3": "*", "Address": "5050 S Homan Ave.", "CITY": "Chicago", "ZIP": 60632.0, "distid": "150162990250000", "dist": "City of Chicago SD 299", "city1": "Chicago", "county": "Cook", "type": "CHARTER NET SCH" }, "geometry": { "type": "Point", "coordinates": [ -87.70876013216882, 41.801043390939171 ] } },
{ "type": "Feature", "properties": { "Status": "M", "Score": 100.0, "Match_type": "A", "Match_addr": "1641 W 16TH ST, 60608", "Side": "L", "Ref_ID": 47354, "User_fld": "0", "Addr_type": "StreetAddress", "ARC_Street": "1641 W 16th St.", "ARC_ZIP": "60608", "schid": "15016299025205CAI05", "name": "Uno Chtr-De Las Casas", "F3": "*", "Address": "1641 W 16th St.", "CITY": "Chicago", "ZIP": 60608.0, "distid": "150162990250000", "dist": "City of Chicago SD 299", "city1": "Chicago", "county": "Cook", "type": "CHARTER NET SCH" }, "geometry": { "type": "Point", "coordinates": [ -87.667949747946722, 41.859531446531342 ] } },
{ "type": "Feature", "properties": { "Status": "M", "Score": 100.0, "Match_type": "A", "Match_addr": "2845 W BARRY AVE, 60618", "Side": "L", "Ref_ID": 47923, "User_fld": "0", "Addr_type": "StreetAddress", "ARC_Street": "2845 W Barry Ave.", "ARC_ZIP": "60618", "schid": "15016299025205CAI04", "name": "Uno Chtr-Fuentes", "F3": "*", "Address": "2845 W Barry Ave.", "CITY": "Chicago", "ZIP": 60618.0, "distid": "150162990250000", "dist": "City of Chicago SD 299", "city1": "Chicago", "county": "Cook", "type": "CHARTER NET SCH" }, "geometry": { "type": "Point", "coordinates": [ -87.699593779713311, 41.937503217526242 ] } },
{ "type": "Feature", "properties": { "Status": "M", "Score": 100.0, "Match_type": "A", "Match_addr": "2916 W 47TH ST, 60632", "Side": "R", "Ref_ID": 30340, "User_fld": "0", "Addr_type": "StreetAddress", "ARC_Street": "2916 W 47th St.", "ARC_ZIP": "60632", "schid": "15016299025205CAI06", "name": "Uno Chtr-Marquez", "F3": "*", "Address": "2916 W 47th St.", "CITY": "Chicago", "ZIP": 60632.0, "distid": "150162990250000", "dist": "City of Chicago SD 299", "city1": "Chicago", "county": "Cook", "type": "CHARTER NET SCH" }, "geometry": { "type": "Point", "coordinates": [ -87.697393333409224, 41.808281388125906 ] } },
{ "type": "Feature", "properties": { "Status": "M", "Score": 100.0, "Match_type": "A", "Match_addr": "2651 W 23RD ST, 60608", "Side": "L", "Ref_ID": 14119, "User_fld": "0", "Addr_type": "StreetAddress", "ARC_Street": "2651 W 23rd St.", "ARC_ZIP": "60608", "schid": "15016299025205CAI01", "name": "Uno Chtr-Paz", "F3": "*", "Address": "2651 W 23rd St.", "CITY": "Chicago", "ZIP": 60608.0, "distid": "150162990250000", "dist": "City of Chicago SD 299", "city1": "Chicago", "county": "Cook", "type": "CHARTER NET SCH" }, "geometry": { "type": "Point", "coordinates": [ -87.692551605896654, 41.850062850031996 ] } },
{ "type": "Feature", "properties": { "Status": "M", "Score": 100.0, "Match_type": "A", "Match_addr": "5135 S CALIFORNIA AVE, 60632", "Side": "L", "Ref_ID": 47037, "User_fld": "0", "Addr_type": "StreetAddress", "ARC_Street": "5135 S California Ave.", "ARC_ZIP": "60632", "schid": "15016299025205CAI03", "name": "Uno Chtr-Tamayo", "F3": "*", "Address": "5135 S California Ave.", "CITY": "Chicago", "ZIP": 60632.0, "distid": "150162990250000", "dist": "City of Chicago SD 299", "city1": "Chicago", "county": "Cook", "type": "CHARTER NET SCH" }, "geometry": { "type": "Point", "coordinates": [ -87.693898302755372, 41.799929646176786 ] } }
]
}
