{
"type": "FeatureCollection",
"crs": { "type": "name", "properties": { "name": "urn:ogc:def:crs:EPSG::4269" } },
                                                                                
"features": [
{ "type": "Feature", "properties": { "Status": "M", "Score": 100.0, "Match_type": "PP", "Match_addr": null, "Side": null, "Ref_ID": 0, "User_fld": null, "Addr_type": null, "ARC_Street": "110 MONROE ST.", "ARC_ZIP": "53916", "Number": 1.0, "Name": "Agnesian HealthCare - Beaver Dam Dialysis Center", "Address": "110 Monroe St.", "Town": "Beaver Dam", "State": null, "Zip": 0.0, "F7": null, "F8": null }, "geometry": { "type": "Point", "coordinates": [ -88.820203648525194, 43.455175165304837 ] } },
{ "type": "Feature", "properties": { "Status": "M", "Score": 100.0, "Match_type": "A", "Match_addr": "200 Front St, 53916", "Side": "R", "Ref_ID": 417, "User_fld": "0", "Addr_type": "StreetAddress", "ARC_Street": "200 Front St.", "ARC_ZIP": "53916", "Number": 2.0, "Name": "Agnesian HealthCare - Psychiatric Associates", "Address": "200 Front St.", "Town": "Beaver Dam", "State": "WI", "Zip": 53916.0, "F7": null, "F8": null }, "geometry": { "type": "Point", "coordinates": [ -88.839431988791119, 43.45627839632256 ] } },
{ "type": "Feature", "properties": { "Status": "M", "Score": 100.0, "Match_type": "PP", "Match_addr": null, "Side": null, "Ref_ID": 0, "User_fld": null, "Addr_type": null, "ARC_Street": "W8238 HIGHWAY 33", "ARC_ZIP": "53916", "Number": 3.0, "Name": "Air Care, Inc.", "Address": "W8238 Highway 33", "Town": "Beaver Dam", "State": null, "Zip": 0.0, "F7": null, "F8": null }, "geometry": { "type": "Point", "coordinates": [ -88.810715438658022, 43.455725504012527 ] } },
{ "type": "Feature", "properties": { "Status": "M", "Score": 100.0, "Match_type": "A", "Match_addr": "120 E Maple Ave, 53916", "Side": "L", "Ref_ID": 3047, "User_fld": "0", "Addr_type": "StreetAddress", "ARC_Street": "120 E. Maple Ave.", "ARC_ZIP": "53916", "Number": 4.0, "Name": "Alliant Energy", "Address": "120 E. Maple Ave.", "Town": "Beaver Dam", "State": "WI", "Zip": 53916.0, "F7": null, "F8": null }, "geometry": { "type": "Point", "coordinates": [ -88.836341931698414, 43.457403441855661 ] } },
{ "type": "Feature", "properties": { "Status": "M", "Score": 100.0, "Match_type": "PP", "Match_addr": null, "Side": null, "Ref_ID": 0, "User_fld": null, "Addr_type": null, "ARC_Street": "325 SEIPPEL BLVD.", "ARC_ZIP": "53916", "Number": 5.0, "Name": "AmericInn Lodge & Suites", "Address": "325 Seippel Blvd.", "Town": "Beaver Dam", "State": null, "Zip": 0.0, "F7": null, "F8": null }, "geometry": { "type": "Point", "coordinates": [ -88.817452052038689, 43.476308902361595 ] } },
{ "type": "Feature", "properties": { "Status": "M", "Score": 100.0, "Match_type": "PP", "Match_addr": null, "Side": null, "Ref_ID": 0, "User_fld": null, "Addr_type": null, "ARC_Street": "1600 N. SPRING ST.", "ARC_ZIP": "53916", "Number": 6.0, "Name": "Animart Pet, Inc.", "Address": "1600 N. Spring St.", "Town": "Beaver Dam", "State": null, "Zip": 0.0, "F7": null, "F8": null }, "geometry": { "type": "Point", "coordinates": [ -88.826136172275554, 43.473176913457664 ] } },
{ "type": "Feature", "properties": { "Status": "M", "Score": 100.0, "Match_type": "PP", "Match_addr": null, "Side": null, "Ref_ID": 0, "User_fld": null, "Addr_type": null, "ARC_Street": "200 W. INDUSTRIAL DR.", "ARC_ZIP": "53916", "Number": 7.0, "Name": "Apache Stainless Equipment Corporation", "Address": "200 W. Industrial Dr.", "Town": "Beaver Dam", "State": null, "Zip": 0.0, "F7": null, "F8": null }, "geometry": { "type": "Point", "coordinates": [ -88.833358080037371, 43.47753491416988 ] } },
{ "type": "Feature", "properties": { "Status": "M", "Score": 100.0, "Match_type": "PP", "Match_addr": null, "Side": null, "Ref_ID": 0, "User_fld": null, "Addr_type": null, "ARC_Street": "1605 N. SPRING ST.", "ARC_ZIP": "53916", "Number": 8.0, "Name": "Beaver Dam Area Arts Association", "Address": "1605 N. Spring St.", "Town": "Beaver Dam", "State": null, "Zip": 0.0, "F7": null, "F8": null }, "geometry": { "type": "Point", "coordinates": [ -88.82540301030042, 43.473116378229484 ] } },
{ "type": "Feature", "properties": { "Status": "M", "Score": 100.0, "Match_type": "A", "Match_addr": "707 S University Ave, 53916", "Side": "R", "Ref_ID": 4331, "User_fld": "0", "Addr_type": "StreetAddress", "ARC_Street": "707 S. University Ave.", "ARC_ZIP": "53916", "Number": 9.0, "Name": "Beaver Dam Community Hospitals", "Address": "707 S. University Ave.", "Town": "Beaver Dam", "State": "WI", "Zip": 53916.0, "F7": null, "F8": null }, "geometry": { "type": "Point", "coordinates": [ -88.828242716385958, 43.448962275335049 ] } },
{ "type": "Feature", "properties": { "Status": "M", "Score": 100.0, "Match_type": "A", "Match_addr": "W8884 Sunset Dr, 53916", "Side": "L", "Ref_ID": 10354, "User_fld": "0", "Addr_type": "StreetAddress", "ARC_Street": "W8884 Sunset Dr.", "ARC_ZIP": "53916", "Number": 10.0, "Name": "Beaver Dam Country Club", "Address": "W8884 Sunset Dr.", "Town": "Beaver Dam", "State": "WI", "Zip": 53916.0, "F7": null, "F8": null }, "geometry": { "type": "Point", "coordinates": [ -88.844866115307838, 43.495511736869666 ] } },
{ "type": "Feature", "properties": { "Status": "M", "Score": 100.0, "Match_type": "A", "Match_addr": "609 Gould St, 53916", "Side": "L", "Ref_ID": 2138, "User_fld": "0", "Addr_type": "StreetAddress", "ARC_Street": "609 Gould St.", "ARC_ZIP": "53916", "Number": 11.0, "Name": "Beaver Dam Family Center", "Address": "609 Gould St.", "Town": "Beaver Dam", "State": "WI", "Zip": 53916.0, "F7": null, "F8": null }, "geometry": { "type": "Point", "coordinates": [ -88.818455295808107, 43.460758955463945 ] } },
{ "type": "Feature", "properties": { "Status": "M", "Score": 100.0, "Match_type": "A", "Match_addr": "W8356 Howard Dr, 53916", "Side": "R", "Ref_ID": 2848, "User_fld": "0", "Addr_type": "StreetAddress", "ARC_Street": "W8356 Howard Dr.", "ARC_ZIP": "53916", "Number": 12.0, "Name": "Beaver Dam Ford", "Address": "W8356 Howard Dr.", "Town": "Beaver Dam", "State": "WI", "Zip": 53916.0, "F7": null, "F8": null }, "geometry": { "type": "Point", "coordinates": [ -88.818234990383189, 43.483871711271981 ] } },
{ "type": "Feature", "properties": { "Status": "M", "Score": 100.0, "Match_type": "A", "Match_addr": "211 S Spring St, 53916", "Side": "R", "Ref_ID": 8737, "User_fld": "0", "Addr_type": "StreetAddress", "ARC_Street": "211 S. Spring St.", "ARC_ZIP": "53916", "Number": 13.0, "Name": "Beaver Dam Lake Improvement Association", "Address": "211 S. Spring St.", "Town": "Beaver Dam", "State": "WI", "Zip": 53916.0, "F7": null, "F8": null }, "geometry": { "type": "Point", "coordinates": [ -88.836817718257208, 43.454790201085004 ] } },
{ "type": "Feature", "properties": { "Status": "M", "Score": 89.04, "Match_type": "A", "Match_addr": "N8559 State Hwy 33, 53916", "Side": "L", "Ref_ID": 1071, "User_fld": "0", "Addr_type": "StreetAddress", "ARC_Street": "N8559 State Road 33", "ARC_ZIP": "53916", "Number": 14.0, "Name": "Beaver Dam Landscape Supply", "Address": "N8559 State Road 33", "Town": "Beaver Dam", "State": "WI", "Zip": 53916.0, "F7": null, "F8": null }, "geometry": { "type": "Point", "coordinates": [ -88.853834447382198, 43.505045246696803 ] } },
{ "type": "Feature", "properties": { "Status": "M", "Score": 100.0, "Match_type": "A", "Match_addr": "705 McKinley St, 53916", "Side": "R", "Ref_ID": 291, "User_fld": "0", "Addr_type": "StreetAddress", "ARC_Street": "705 McKinley St.", "ARC_ZIP": "53916", "Number": 15.0, "Name": "Beaver Dam Unified School District", "Address": "705 McKinley St.", "Town": "Beaver Dam", "State": "WI", "Zip": 53916.0, "F7": null, "F8": null }, "geometry": { "type": "Point", "coordinates": [ -88.821590283442632, 43.46527421861478 ] } },
{ "type": "Feature", "properties": { "Status": "M", "Score": 100.0, "Match_type": "A", "Match_addr": "215 N Spring St, 53916", "Side": "R", "Ref_ID": 7891, "User_fld": "0", "Addr_type": "StreetAddress", "ARC_Street": "215 N. Spring St.", "ARC_ZIP": "53916", "Number": 16.0, "Name": "Century 21", "Address": "215 N. Spring St.", "Town": "Beaver Dam", "State": "WI", "Zip": 53916.0, "F7": null, "F8": null }, "geometry": { "type": "Point", "coordinates": [ -88.8368599407479, 43.457512123126818 ] } },
{ "type": "Feature", "properties": { "Status": "M", "Score": 100.0, "Match_type": "PP", "Match_addr": null, "Side": null, "Ref_ID": 0, "User_fld": null, "Addr_type": null, "ARC_Street": "1011 S. SPRING ST.", "ARC_ZIP": "53916", "Number": 17.0, "Name": "Choice Insurance Agency, Inc.", "Address": "1011 S. Spring St.", "Town": "Beaver Dam", "State": null, "Zip": 0.0, "F7": null, "F8": null }, "geometry": { "type": "Point", "coordinates": [ -88.839236721967495, 43.444444530088504 ] } },
{ "type": "Feature", "properties": { "Status": "M", "Score": 100.0, "Match_type": "PP", "Match_addr": null, "Side": null, "Ref_ID": 0, "User_fld": null, "Addr_type": null, "ARC_Street": "114 E. THIRD ST.", "ARC_ZIP": "53916", "Number": 18.0, "Name": "City of Beaver Dam", "Address": "114 E. Third St.", "Town": "Beaver Dam", "State": null, "Zip": 0.0, "F7": null, "F8": null }, "geometry": { "type": "Point", "coordinates": [ -88.835185324311951, 43.458656025518081 ] } },
{ "type": "Feature", "properties": { "Status": "M", "Score": 100.0, "Match_type": "PP", "Match_addr": null, "Side": null, "Ref_ID": 0, "User_fld": null, "Addr_type": null, "ARC_Street": "118 W. MAPLE AVE.", "ARC_ZIP": "53916", "Number": 19.0, "Name": "Columbus Community Hospital", "Address": "118 W. Maple Ave.", "Town": "Beaver Dam", "State": null, "Zip": 0.0, "F7": null, "F8": null }, "geometry": { "type": "Point", "coordinates": [ -88.83810561371412, 43.457449526440968 ] } },
{ "type": "Feature", "properties": { "Status": "M", "Score": 100.0, "Match_type": "A", "Match_addr": "109 Warren St, 53916", "Side": "R", "Ref_ID": 9885, "User_fld": "0", "Addr_type": "StreetAddress", "ARC_Street": "109 Warren St., Ste. 4", "ARC_ZIP": "53916", "Number": 20.0, "Name": "Community Pediatrics", "Address": "109 Warren St., Ste. 4", "Town": "Beaver Dam", "State": "WI", "Zip": 53916.0, "F7": null, "F8": null }, "geometry": { "type": "Point", "coordinates": [ -88.824246189125702, 43.44925455051051 ] } },
{ "type": "Feature", "properties": { "Status": "M", "Score": 100.0, "Match_type": "A", "Match_addr": "105 Warren St, 53916", "Side": "R", "Ref_ID": 9885, "User_fld": "0", "Addr_type": "StreetAddress", "ARC_Street": "105 Warren St.", "ARC_ZIP": "53916", "Number": 21.0, "Name": "Dean Wahl, DDS", "Address": "105 Warren St.", "Town": "Beaver Dam", "State": "WI", "Zip": 53916.0, "F7": null, "F8": null }, "geometry": { "type": "Point", "coordinates": [ -88.824095891635054, 43.449462263827535 ] } },
{ "type": "Feature", "properties": { "Status": "M", "Score": 100.0, "Match_type": "PP", "Match_addr": null, "Side": null, "Ref_ID": 0, "User_fld": null, "Addr_type": null, "ARC_Street": "836 PARK AVE.", "ARC_ZIP": "53916", "Number": 22.0, "Name": "Fairway Independent Mortgage Corporation - Kris Weninger", "Address": "836 Park Ave.", "Town": "Beaver Dam", "State": null, "Zip": 0.0, "F7": null, "F8": null }, "geometry": { "type": "Point", "coordinates": [ -88.818050998919986, 43.45677763870647 ] } },
{ "type": "Feature", "properties": { "Status": "M", "Score": 100.0, "Match_type": "PP", "Match_addr": null, "Side": null, "Ref_ID": 0, "User_fld": null, "Addr_type": null, "ARC_Street": "W9666 BEAVERLAND PKWY.", "ARC_ZIP": "53916", "Number": 23.0, "Name": "Falbe Collision & Automotive", "Address": "W9666 Beaverland Pkwy.", "Town": "Beaver Dam", "State": null, "Zip": 0.0, "F7": null, "F8": null }, "geometry": { "type": "Point", "coordinates": [ -88.88250166062295, 43.430412259455622 ] } },
{ "type": "Feature", "properties": { "Status": "M", "Score": 100.0, "Match_type": "A", "Match_addr": "W9368 Wendt Dr, 53916", "Side": "L", "Ref_ID": 5402, "User_fld": "0", "Addr_type": "StreetAddress", "ARC_Street": "W9368 Wendt Dr.", "ARC_ZIP": "53916", "Number": 24.0, "Name": "Flyway Carpet Cleaning", "Address": "W9368 Wendt Dr.", "Town": "Beaver Dam", "State": "WI", "Zip": 53916.0, "F7": null, "F8": null }, "geometry": { "type": "Point", "coordinates": [ -88.868024306585681, 43.443341545298317 ] } },
{ "type": "Feature", "properties": { "Status": "M", "Score": 100.0, "Match_type": "PP", "Match_addr": null, "Side": null, "Ref_ID": 0, "User_fld": null, "Addr_type": null, "ARC_Street": "231 PARK AVE.", "ARC_ZIP": "53916", "Number": 25.0, "Name": "Glasgow Photography", "Address": "231 Park Ave.", "Town": "Beaver Dam", "State": null, "Zip": 0.0, "F7": null, "F8": null }, "geometry": { "type": "Point", "coordinates": [ -88.83183933680337, 43.456102076253472 ] } },
{ "type": "Feature", "properties": { "Status": "M", "Score": 100.0, "Match_type": "A", "Match_addr": "1644 N Spring St, 53916", "Side": "L", "Ref_ID": 4005, "User_fld": "0", "Addr_type": "StreetAddress", "ARC_Street": "1644 N. Spring St.", "ARC_ZIP": "53916", "Number": 26.0, "Name": "Holliday Food & Sport", "Address": "1644 N. Spring St.", "Town": "Beaver Dam", "State": "WI", "Zip": 53916.0, "F7": null, "F8": null }, "geometry": { "type": "Point", "coordinates": [ -88.823432522597614, 43.476527497572768 ] } },
{ "type": "Feature", "properties": { "Status": "M", "Score": 100.0, "Match_type": "PP", "Match_addr": null, "Side": null, "Ref_ID": 0, "User_fld": null, "Addr_type": null, "ARC_Street": "N7171 RACEWAY RD.", "ARC_ZIP": "53916", "Number": 27.0, "Name": "Hometown Glass & Improvement, Inc.", "Address": "N7171 Raceway Rd.", "Town": "Beaver Dam", "State": null, "Zip": 0.0, "F7": null, "F8": null }, "geometry": { "type": "Point", "coordinates": [ -88.80678213346151, 43.45357425998197 ] } },
{ "type": "Feature", "properties": { "Status": "M", "Score": 100.0, "Match_type": "PP", "Match_addr": null, "Side": null, "Ref_ID": 0, "User_fld": null, "Addr_type": null, "ARC_Street": "820 PARK AVE.", "ARC_ZIP": "53916", "Number": 28.0, "Name": "Keller Real Estate - Park Village Shopping Center", "Address": "820 Park Ave.", "Town": "Beaver Dam", "State": null, "Zip": 0.0, "F7": null, "F8": null }, "geometry": { "type": "Point", "coordinates": [ -88.818845011321756, 43.456706193260302 ] } },
{ "type": "Feature", "properties": { "Status": "M", "Score": 100.0, "Match_type": "A", "Match_addr": "419 S Center St, 53916", "Side": "R", "Ref_ID": 2396, "User_fld": "0", "Addr_type": "StreetAddress", "ARC_Street": "419 S. Center St.", "ARC_ZIP": "53916", "Number": 29.0, "Name": "Kraft Foods", "Address": "419 S. Center St.", "Town": "Beaver Dam", "State": "WI", "Zip": 53916.0, "F7": null, "F8": null }, "geometry": { "type": "Point", "coordinates": [ -88.840055483016741, 43.45030213081575 ] } },
{ "type": "Feature", "properties": { "Status": "M", "Score": 100.0, "Match_type": "PP", "Match_addr": null, "Side": null, "Ref_ID": 0, "User_fld": null, "Addr_type": null, "ARC_Street": "718 PARK AVE.", "ARC_ZIP": "53916", "Number": 30.0, "Name": "Mandi Saucerman Real Estate", "Address": "718 Park Ave.", "Town": "Beaver Dam", "State": null, "Zip": 0.0, "F7": null, "F8": null }, "geometry": { "type": "Point", "coordinates": [ -88.820078949273082, 43.456499905001941 ] } },
{ "type": "Feature", "properties": { "Status": "M", "Score": 100.0, "Match_type": "PP", "Match_addr": null, "Side": null, "Ref_ID": 0, "User_fld": null, "Addr_type": null, "ARC_Street": "120 INDUSTRIAL DRIVE", "ARC_ZIP": "53916", "Number": 31.0, "Name": "MEC", "Address": "120 Industrial Drive", "Town": "Beaver Dam", "State": null, "Zip": 0.0, "F7": null, "F8": null }, "geometry": { "type": "Point", "coordinates": [ -88.82590840177626, 43.477764395231219 ] } },
{ "type": "Feature", "properties": { "Status": "M", "Score": 100.0, "Match_type": "PP", "Match_addr": null, "Side": null, "Ref_ID": 0, "User_fld": null, "Addr_type": null, "ARC_Street": "210 CORPORATE DRIVE", "ARC_ZIP": "53916", "Number": 32.0, "Name": "MEC", "Address": "210 Corporate Drive", "Town": "Beaver Dam", "State": null, "Zip": 0.0, "F7": null, "F8": null }, "geometry": { "type": "Point", "coordinates": [ -88.812777939372211, 43.480644523529079 ] } },
{ "type": "Feature", "properties": { "Status": "M", "Score": 100.0, "Match_type": "PP", "Match_addr": null, "Side": null, "Ref_ID": 0, "User_fld": null, "Addr_type": null, "ARC_Street": "210 E. MAPLE AVE.", "ARC_ZIP": "53916", "Number": 33.0, "Name": "Mike Wissell Real Estate LLC", "Address": "210 E. Maple Ave.", "Town": "Beaver Dam", "State": null, "Zip": 0.0, "F7": null, "F8": null }, "geometry": { "type": "Point", "coordinates": [ -88.833299577570543, 43.457634413094098 ] } },
{ "type": "Feature", "properties": { "Status": "M", "Score": 100.0, "Match_type": "PP", "Match_addr": null, "Side": null, "Ref_ID": 0, "User_fld": null, "Addr_type": null, "ARC_Street": "1101 DE CLARK ST.", "ARC_ZIP": "53916", "Number": 34.0, "Name": "Mini-Max Storage", "Address": "1101 De Clark St.", "Town": "Beaver Dam", "State": null, "Zip": 0.0, "F7": null, "F8": null }, "geometry": { "type": "Point", "coordinates": [ -88.833304848955834, 43.475316245108701 ] } },
{ "type": "Feature", "properties": { "Status": "M", "Score": 100.0, "Match_type": "PP", "Match_addr": null, "Side": null, "Ref_ID": 0, "User_fld": null, "Addr_type": null, "ARC_Street": "208 W. MAPLE AVE.", "ARC_ZIP": "53916", "Number": 35.0, "Name": "Mother Earth Cleaners", "Address": "208 W. Maple Ave.", "Town": "Beaver Dam", "State": null, "Zip": 0.0, "F7": null, "F8": null }, "geometry": { "type": "Point", "coordinates": [ -88.840384508585004, 43.457670521588945 ] } },
{ "type": "Feature", "properties": { "Status": "M", "Score": 100.0, "Match_type": "A", "Match_addr": "W9684 Beaverland Pkwy, 53916", "Side": "L", "Ref_ID": 1623, "User_fld": "0", "Addr_type": "StreetAddress", "ARC_Street": "W9684 Beaverland Pkwy.", "ARC_ZIP": "53916", "Number": 36.0, "Name": "Neuman Pools, Inc.", "Address": "W9684 Beaverland Pkwy.", "Town": "Beaver Dam", "State": "WI", "Zip": 53916.0, "F7": null, "F8": null }, "geometry": { "type": "Point", "coordinates": [ -88.883899772265949, 43.429883976028343 ] } },
{ "type": "Feature", "properties": { "Status": "M", "Score": 100.0, "Match_type": "PP", "Match_addr": null, "Side": null, "Ref_ID": 0, "User_fld": null, "Addr_type": null, "ARC_Street": "815 PARK AVE.", "ARC_ZIP": "53916", "Number": 37.0, "Name": "Quality Inn & Suites", "Address": "815 Park Ave.", "Town": "Beaver Dam", "State": null, "Zip": 0.0, "F7": null, "F8": null }, "geometry": { "type": "Point", "coordinates": [ -88.817771818997173, 43.455168468044626 ] } },
{ "type": "Feature", "properties": { "Status": "M", "Score": 100.0, "Match_type": "A", "Match_addr": "130 Park Ave, 53916", "Side": "L", "Ref_ID": 2535, "User_fld": "0", "Addr_type": "StreetAddress", "ARC_Street": "130 Park Ave.", "ARC_ZIP": "53916", "Number": 38.0, "Name": "R & R Insurance", "Address": "130 Park Ave.", "Town": "Beaver Dam", "State": "WI", "Zip": 53916.0, "F7": null, "F8": null }, "geometry": { "type": "Point", "coordinates": [ -88.836044923442586, 43.456310760188387 ] } },
{ "type": "Feature", "properties": { "Status": "M", "Score": 100.0, "Match_type": "A", "Match_addr": "1633 N Spring St, 53916", "Side": "R", "Ref_ID": 4005, "User_fld": "0", "Addr_type": "StreetAddress", "ARC_Street": "1633 N. Spring St.", "ARC_ZIP": "53916", "Number": 39.0, "Name": "Sherwin-Williams Beaver Dam", "Address": "1633 N. Spring St.", "Town": "Beaver Dam", "State": "WI", "Zip": 53916.0, "F7": null, "F8": null }, "geometry": { "type": "Point", "coordinates": [ -88.823903232354112, 43.475618542343284 ] } },
{ "type": "Feature", "properties": { "Status": "M", "Score": 100.0, "Match_type": "A", "Match_addr": "503 S Spring St, 53916", "Side": "R", "Ref_ID": 4638, "User_fld": "0", "Addr_type": "StreetAddress", "ARC_Street": "503 S. Spring St.", "ARC_ZIP": "53916", "Number": 40.0, "Name": "St. Katharine Drexel Parish School", "Address": "503 S. Spring St.", "Town": "Beaver Dam", "State": "WI", "Zip": 53916.0, "F7": null, "F8": null }, "geometry": { "type": "Point", "coordinates": [ -88.836753693624203, 43.452022051230315 ] } },
{ "type": "Feature", "properties": { "Status": "M", "Score": 100.0, "Match_type": "PP", "Match_addr": null, "Side": null, "Ref_ID": 0, "User_fld": null, "Addr_type": null, "ARC_Street": "827 PARK AVE.", "ARC_ZIP": "53916", "Number": 41.0, "Name": "Sunview Restaurant", "Address": "827 Park Ave.", "Town": "Beaver Dam", "State": null, "Zip": 0.0, "F7": null, "F8": null }, "geometry": { "type": "Point", "coordinates": [ -88.817275541180862, 43.455754801472722 ] } },
{ "type": "Feature", "properties": { "Status": "M", "Score": 100.0, "Match_type": "PP", "Match_addr": null, "Side": null, "Ref_ID": 0, "User_fld": null, "Addr_type": null, "ARC_Street": "711 PARK AVE.", "ARC_ZIP": "53916", "Number": 42.0, "Name": "Super 8", "Address": "711 Park Ave.", "Town": "Beaver Dam", "State": null, "Zip": 0.0, "F7": null, "F8": null }, "geometry": { "type": "Point", "coordinates": [ -88.821463567220263, 43.45608568029585 ] } },
{ "type": "Feature", "properties": { "Status": "M", "Score": 100.0, "Match_type": "A", "Match_addr": "211 S Spring St, 53916", "Side": "R", "Ref_ID": 8737, "User_fld": "0", "Addr_type": "StreetAddress", "ARC_Street": "211 S. Spring St.", "ARC_ZIP": "53916", "Number": 43.0, "Name": "Title Consultants, Inc.", "Address": "211 S. Spring St.", "Town": "Beaver Dam", "State": "WI", "Zip": 53916.0, "F7": null, "F8": null }, "geometry": { "type": "Point", "coordinates": [ -88.836817718257208, 43.454790201085004 ] } },
{ "type": "Feature", "properties": { "Status": "M", "Score": 100.0, "Match_type": "PP", "Match_addr": null, "Side": null, "Ref_ID": 0, "User_fld": null, "Addr_type": null, "ARC_Street": "308 ONEIDA ST.", "ARC_ZIP": "53916", "Number": 44.0, "Name": "Trinity Church United Methodist", "Address": "308 Oneida St.", "Town": "Beaver Dam", "State": null, "Zip": 0.0, "F7": null, "F8": null }, "geometry": { "type": "Point", "coordinates": [ -88.838648198054173, 43.462156533581982 ] } },
{ "type": "Feature", "properties": { "Status": "M", "Score": 100.0, "Match_type": "PP", "Match_addr": null, "Side": null, "Ref_ID": 0, "User_fld": null, "Addr_type": null, "ARC_Street": "N7169 E. PLAZA DR.", "ARC_ZIP": "53916", "Number": 45.0, "Name": "Verlo", "Address": "N7169 E. Plaza Dr.", "Town": "Beaver Dam", "State": null, "Zip": 0.0, "F7": null, "F8": null }, "geometry": { "type": "Point", "coordinates": [ -88.808863024228117, 43.454118114397978 ] } },
{ "type": "Feature", "properties": { "Status": "M", "Score": 100.0, "Match_type": "PP", "Match_addr": null, "Side": null, "Ref_ID": 0, "User_fld": null, "Addr_type": null, "ARC_Street": "115 DISTRIBUTION WAY", "ARC_ZIP": "53916", "Number": 46.0, "Name": "Walmart", "Address": "115 Distribution Way", "Town": "Beaver Dam", "State": null, "Zip": 0.0, "F7": null, "F8": null }, "geometry": { "type": "Point", "coordinates": [ -88.798592236167536, 43.510534943042998 ] } },
{ "type": "Feature", "properties": { "Status": "U", "Score": 0.0, "Match_type": "A", "Match_addr": null, "Side": null, "Ref_ID": -1, "User_fld": null, "Addr_type": null, "ARC_Street": null, "ARC_ZIP": null, "Number": 0.0, "Name": null, "Address": null, "Town": null, "State": null, "Zip": 0.0, "F7": null, "F8": null }, "geometry": { "type": "Point", "coordinates": [ ,  ] } },
{ "type": "Feature", "properties": { "Status": "U", "Score": 0.0, "Match_type": "A", "Match_addr": null, "Side": null, "Ref_ID": -1, "User_fld": null, "Addr_type": null, "ARC_Street": null, "ARC_ZIP": null, "Number": 0.0, "Name": null, "Address": null, "Town": null, "State": null, "Zip": 0.0, "F7": null, "F8": null }, "geometry": { "type": "Point", "coordinates": [ ,  ] } },
{ "type": "Feature", "properties": { "Status": "U", "Score": 0.0, "Match_type": "A", "Match_addr": null, "Side": null, "Ref_ID": -1, "User_fld": null, "Addr_type": null, "ARC_Street": null, "ARC_ZIP": null, "Number": 0.0, "Name": null, "Address": null, "Town": null, "State": null, "Zip": 0.0, "F7": null, "F8": null }, "geometry": { "type": "Point", "coordinates": [ ,  ] } },
{ "type": "Feature", "properties": { "Status": "U", "Score": 0.0, "Match_type": "A", "Match_addr": null, "Side": null, "Ref_ID": -1, "User_fld": null, "Addr_type": null, "ARC_Street": null, "ARC_ZIP": null, "Number": 0.0, "Name": null, "Address": null, "Town": null, "State": null, "Zip": 0.0, "F7": null, "F8": null }, "geometry": { "type": "Point", "coordinates": [ ,  ] } },
{ "type": "Feature", "properties": { "Status": "U", "Score": 0.0, "Match_type": "A", "Match_addr": null, "Side": null, "Ref_ID": -1, "User_fld": null, "Addr_type": null, "ARC_Street": null, "ARC_ZIP": null, "Number": 0.0, "Name": null, "Address": null, "Town": null, "State": null, "Zip": 0.0, "F7": null, "F8": null }, "geometry": { "type": "Point", "coordinates": [ ,  ] } },
{ "type": "Feature", "properties": { "Status": "U", "Score": 0.0, "Match_type": "A", "Match_addr": null, "Side": null, "Ref_ID": -1, "User_fld": null, "Addr_type": null, "ARC_Street": null, "ARC_ZIP": null, "Number": 0.0, "Name": null, "Address": null, "Town": null, "State": null, "Zip": 0.0, "F7": null, "F8": null }, "geometry": { "type": "Point", "coordinates": [ ,  ] } }
]
}
